[
    {
        "id": "barranquilla",
        "name": "KAM Barranquilla",
        "address": "Cra. XX #YY-ZZ",
        "lat": 11.002689878603764,
        "lng": -74.81448489302309,
        "areaId": "08001"
    },
    {
        "id": "bucaramanga",
        "name": "KAM Bucaramanga",
        "address": "Cra. XX #YY-ZZ",
        "lat": 7.126714307270854,
        "lng": -73.11446761061566,
        "areaId": "68001"
    },
    {
        "id": "cali",
        "name": "KAM Cali",
        "address": "Cra. XX #YY-ZZ",
        "lat": 3.452424382685351,
        "lng": -76.4931246763714,
        "areaId": "76001"
    },
    {
        "id": "cartagena",
        "name": "KAM Cartagena",
        "address": "Cra. XX #YY-ZZ",
        "lat": 10.420495819286762,
        "lng": -75.53385812286801,
        "areaId": "13001"
    },
    {
        "id": "cucuta",
        "name": "KAM Cúcuta",
        "address": "Cra. XX #YY-ZZ",
        "lat": 7.89752044391865,
        "lng": -72.5062011718628,
        "areaId": "54001"
    },
    {
        "id": "medellin",
        "name": "KAM Medellín",
        "address": "Cra. XX #YY-ZZ",
        "lat": 6.262431895656156,
        "lng": -75.56404755453853,
        "areaId": "05001"
    },
    {
        "id": "monteria",
        "name": "KAM Montería",
        "address": "Cra. XX #YY-ZZ",
        "lat": 8.751549528798737,
        "lng": -75.88373388085706,
        "areaId": "23001"
    },
    {
        "id": "neiva",
        "name": "KAM Neiva",
        "address": "Cra. XX #YY-ZZ",
        "lat": 2.932486149243003,
        "lng": -75.28494502446691,
        "areaId": "41001"
    },
    {
        "id": "pasto",
        "name": "KAM Pasto",
        "address": "Cra. XX #YY-ZZ",
        "lat": 1.222545892365123,
        "lng": -77.28277453386823,
        "areaId": "52001"
    },
    {
        "id": "pereira",
        "name": "KAM Pereira",
        "address": "Cra. XX #YY-ZZ",
        "lat": 4.817888136171111,
        "lng": -75.69976105300874,
        "areaId": "66001"
    },
    {
        "id": "sincelejo",
        "name": "KAM Sincelejo",
        "address": "Cra. XX #YY-ZZ",
        "lat": 9.303929148438568,
        "lng": -75.39277521496017,
        "areaId": "70001"
    },
    {
        "id": "chapinero",
        "name": "KAM Chapinero",
        "address": "Cra. XX #YY-ZZ",
        "lat": 4.633794896229732,
        "lng": -74.06733995774036,
        "areaId": "1100102"
    },
    {
        "id": "engativa",
        "name": "KAM Engativá",
        "address": "Cra. XX #YY-ZZ",
        "lat": 4.7070992225391795,
        "lng": -74.10950060822498,
        "areaId": "1100110"
    },
    {
        "id": "sancristobal",
        "name": "KAM San Cristóbal",
        "address": "Cra. XX #YY-ZZ",
        "lat": 4.570360700521882,
        "lng": -74.0884026481501,
        "areaId": "1100104"
    },
    {
        "id": "kennedy",
        "name": "KAM Kennedy",
        "address": "Cra. XX #YY-ZZ",
        "lat": 4.616406790731776,
        "lng": -74.15623608648288,
        "areaId": "1100108"
    },
    {
        "id": "valledupar",
        "name": "KAM Valledupar",
        "address": "Cra. XX #YY-ZZ",
        "lat": 10.47088147604149,
        "lng": -73.2538037172899,
        "areaId": "20001"
    }
]